City_ID,City,Lat,Lng,Max Temp,Humidity,Cloudiness,Wind Speed,Country,Date
0,lebu,-37.6167,-73.65,285.57,93,100,1.97,CL,1683862942
1,bilibino,68.0546,166.4372,274.66,96,100,1.36,RU,1683862826
2,ancud,-41.8697,-73.8203,285.33,98,100,2.94,CL,1683862943
3,port-aux-francais,-49.35,70.2167,281.24,92,100,21.14,TF,1683862944
4,yellowknife,62.456,-114.3525,288.44,38,75,2.06,CA,1683862944
5,edinburgh of the seven seas,-37.0676,-12.3116,290.31,87,94,12.53,SH,1683862945
6,tshabong,-26.05,22.45,289.85,36,84,3.79,BW,1683862946
7,lihue,21.9789,-159.3672,298.92,73,40,6.17,US,1683862946
8,alofi,-19.0595,-169.9187,301.09,74,40,5.66,NU,1683862947
9,punta arenas,-53.15,-70.9167,281.21,76,75,4.63,CL,1683862948
10,sheldon,43.1811,-95.8561,293.21,79,0,7.2,US,1683862948
11,albany,42.6001,-73.9662,289.7,71,74,1.87,US,1683862732
12,magadan,59.5667,150.8,280.67,78,46,2.45,RU,1683862950
13,merizo village,13.2658,144.6691,305.46,81,30,3.41,GU,1683862951
14,aasiaat,68.7098,-52.8699,269.58,94,100,3.24,GL,1683862951
15,vikulovo,56.8167,70.6107,279.21,44,0,3.67,RU,1683862716
16,waitangi,-43.9535,-176.5597,282.49,83,61,1.79,NZ,1683862744
17,tazovsky,67.4667,78.7,260.31,88,54,3.94,RU,1683862953
18,cape coast,5.1053,-1.2466,300.52,83,91,2.27,GH,1683862954
19,iqaluit,63.7506,-68.5145,265.0,93,20,1.54,CA,1683862955
20,blackmans bay,-43.0167,147.3167,289.22,54,74,2.02,AU,1683862955
21,grytviken,-54.2811,-36.5092,268.71,65,1,2.54,GS,1683862956
22,taulaga,-11.0553,-171.0883,301.71,71,62,5.03,AS,1683862957
23,isafjordur,66.0755,-23.124,278.85,97,100,2.41,IS,1683862957
24,weno,7.4515,151.8468,305.12,70,75,3.09,FM,1683862958
25,tiksi,71.6872,128.8694,263.99,77,93,7.16,RU,1683862959
26,san patricio,28.017,-97.5169,300.28,93,5,5.73,US,1683862960
27,udachny,66.4167,112.4,278.4,44,100,7.43,RU,1683862816
28,bacuyangan,9.637,122.4721,302.89,72,100,2.66,PH,1683862961
29,okahao,-17.885,15.0667,292.96,32,92,2.27,NA,1683862962
30,parabel',58.6978,81.4825,274.41,57,79,5.93,RU,1683862962
31,ar ruways,24.1103,52.7306,303.39,49,1,0.23,AE,1683862963
32,invercargill,-46.4,168.35,285.01,79,83,3.88,NZ,1683862964
33,labuan,5.2767,115.2417,305.35,66,20,1.03,MY,1683862965
34,adamstown,-25.066,-130.1015,295.43,60,100,7.56,PN,1683862965
35,isoka,-10.1606,32.6335,287.28,97,45,0.8,ZM,1683862966
36,holstebro,56.3601,8.6161,282.04,80,99,3.3,DK,1683862956
37,buka,40.8108,69.1986,298.71,32,100,3.05,UZ,1683862967
38,hamilton,39.1834,-84.5333,294.62,81,0,2.57,US,1683862968
39,bubaque,11.2833,-15.8333,299.3,74,100,6.24,GW,1683862969
40,pocone,-16.2567,-56.6228,294.81,89,66,1.42,BR,1683862970
41,formosa do rio preto,-11.0483,-45.1931,293.78,91,99,1.07,BR,1683862971
42,barra do garcas,-15.89,-52.2567,294.0,70,83,1.48,BR,1683862972
43,west island,-12.1568,96.8225,303.14,74,40,5.66,CC,1683862972
44,colares,38.7992,-9.4469,288.76,75,0,7.15,PT,1683862973
45,itacoatiara,-3.1431,-58.4442,296.56,98,100,0.86,BR,1683862974
46,cabo san lucas,22.8909,-109.9124,297.93,49,20,8.23,MX,1683862975
47,puerto baquerizo moreno,-0.9,-89.6,299.15,88,84,3.78,EC,1683862975
48,sinabang,2.4803,96.3801,303.4,72,18,4.42,ID,1683862976
49,margaret river,-33.95,115.0667,290.45,56,90,5.99,AU,1683862977
50,santa elena de uairen,4.6167,-61.1333,292.92,97,99,0.4,VE,1683862977
51,longyearbyen,78.2186,15.6401,268.06,80,75,3.6,SJ,1683862768
52,inyonga,-6.7167,32.0667,290.25,93,64,1.28,TZ,1683862979
53,gadzhiyevo,69.2551,33.3362,276.77,100,100,3.15,RU,1683862979
54,kos,36.8933,27.2889,289.84,76,100,7.37,GR,1683862980
55,east london,-33.0153,27.9116,290.98,84,100,6.51,ZA,1683862981
56,gamay,12.3854,125.2979,302.69,72,96,3.41,PH,1683862981
57,at taj,24.2049,23.2857,293.26,39,56,3.06,LY,1683862982
58,ushuaia,-54.8,-68.3,283.96,54,75,1.54,AR,1683862983
59,carnarvon,-24.8667,113.6333,298.24,49,0,3.38,AU,1683862984
60,okha,53.5739,142.9478,280.41,65,7,2.0,RU,1683862986
61,gaigeturi,33.4644,126.3183,291.18,72,100,1.54,KR,1683862987
62,san sebastian de la gomera,28.0916,-17.1133,293.35,82,0,0.51,ES,1683862988
63,polyarnyy,69.1989,33.4478,277.07,100,100,3.08,RU,1683862988
64,charters towers,-20.1,146.2667,298.05,51,73,7.22,AU,1683862990
65,minas novas,-17.2186,-42.5903,294.02,77,95,1.11,BR,1683862991
66,suva,-18.1416,178.4415,301.86,70,40,3.09,FJ,1683862992
67,jamestown,42.097,-79.2353,289.95,64,0,0.45,US,1683862993
68,ribeira grande,38.5167,-28.7,289.14,85,56,4.02,PT,1683862993
69,cold lake,54.4502,-110.2017,290.12,48,75,1.54,CA,1683862994
70,badger,64.8,-147.5333,290.29,41,40,3.6,US,1683862995
71,mejit,10.2753,170.8646,300.44,81,79,7.52,MH,1683862995
72,conover,35.7065,-81.2187,292.48,87,40,1.54,US,1683862996
73,gandajika,-6.75,23.95,292.4,82,62,1.76,CD,1683862997
74,bredasdorp,-34.5322,20.0403,284.59,79,89,5.43,ZA,1683862997
75,maintirano,-18.0667,44.0167,296.71,81,99,3.06,MG,1683862998
76,sitka,57.0531,-135.33,286.09,50,100,7.2,US,1683863000
77,port mathurin,-19.6833,63.4167,298.66,77,70,10.07,MU,1683863001
78,mhamid,29.82,-5.72,298.07,18,6,1.3,MA,1683863001
79,filadelfia,39.9523,-75.1638,293.69,66,0,2.06,US,1683862763
80,atafu village,-8.5421,-172.5159,302.09,77,63,5.68,TK,1683863003
81,georgetown,5.4112,100.3354,307.12,70,20,2.06,MY,1683863003
82,saipan,15.1355,145.701,306.54,100,40,4.63,MP,1683863004
83,hawaiian paradise park,19.5933,-154.9731,297.06,81,100,4.12,US,1683863005
84,bali chak,22.3667,87.55,308.55,36,93,3.65,IN,1683863005
85,itamaraca,-7.7478,-34.8256,301.18,80,26,2.57,BR,1683863006
86,port lincoln,-34.7333,135.8667,289.61,57,12,4.81,AU,1683863007
87,sandnessjoen,66.0217,12.6316,280.44,94,75,1.54,NO,1683863008
88,qaqortoq,60.7167,-46.0333,274.8,87,100,2.2,GL,1683862803
89,puerto natales,-51.7236,-72.4875,280.77,77,95,4.45,CL,1683863009
90,kiunga,-6.1219,141.2906,304.82,63,86,0.97,PG,1683863010
91,tonota,-21.4833,27.4833,286.85,64,0,2.45,BW,1683863010
92,kailua-kona,19.6406,-155.9956,300.65,79,40,3.09,US,1683863011
93,dakhla,23.6848,-15.958,291.56,91,22,6.27,EH,1683862848
94,papao,-17.75,-149.55,300.97,95,100,11.21,PF,1683863013
95,shitanjing,39.2342,106.3439,292.58,19,1,6.52,CN,1683863013
96,olonkinbyen,70.9221,-8.7187,273.65,91,81,6.97,SJ,1683863014
97,puerto santa,-8.9906,-78.6456,295.03,88,100,3.68,PE,1683863015
98,riverside,33.7333,-116.0508,298.75,31,0,1.54,US,1683863016
99,college,64.8569,-147.8028,290.33,42,75,3.6,US,1683863017
100,coquimbo,-29.9533,-71.3436,287.0,100,100,1.03,CL,1683863018
101,benalla,-36.55,145.9833,289.43,50,100,0.25,AU,1683863018
102,egilsstadir,65.2653,-14.3948,282.1,71,75,7.72,IS,1683863019
103,zyryanskoye,56.8306,86.6258,276.24,94,100,5.07,RU,1683863020
104,kourou,5.1552,-52.6478,296.18,93,90,2.65,GF,1683863022
105,yuzhno-kurilsk,44.0306,145.8556,281.15,66,13,1.38,RU,1683863023
106,harper,4.375,-7.7169,300.3,84,99,2.76,LR,1683863023
107,floro,61.5996,5.0328,282.13,93,100,2.57,NO,1683863024
108,namibe,-15.1961,12.1522,295.34,77,16,2.65,AO,1683863025
109,bethel,41.3712,-73.414,290.08,72,0,1.54,US,1683863025
110,vilyuchinsk,52.9306,158.4028,280.3,86,99,1.61,RU,1683862897
111,papatowai,-46.5619,169.4708,284.39,90,100,4.24,NZ,1683863027
112,berlin,52.5244,13.4105,288.14,64,0,3.6,DE,1683862709
113,faranah,10.0404,-10.7434,297.2,74,43,4.15,GN,1683863028
114,macapa,0.0389,-51.0664,298.14,100,0,1.54,BR,1683863029
115,stanley,54.868,-1.6985,282.48,97,100,4.12,GB,1683863029
116,pingzhuang,42.0372,119.2889,297.14,17,59,6.87,CN,1683863030
117,dongdai,26.2419,119.6169,294.1,81,100,0.75,CN,1683863031
118,hermanus,-34.4187,19.2345,283.04,75,93,7.67,ZA,1683863032
119,anadyr,64.75,177.4833,277.43,70,0,2.0,RU,1683863032
120,vila velha,-20.3297,-40.2925,296.45,89,75,1.54,BR,1683862861
121,ceara mirim,-5.6344,-35.4256,299.28,83,20,1.54,BR,1683863034
122,sao joao da barra,-21.6403,-41.0511,294.71,84,100,2.93,BR,1683863034
123,sorong,-0.8833,131.25,301.13,79,95,3.81,ID,1683863035
124,cayiralan,39.3028,35.6439,283.82,80,100,1.63,TR,1683863036
125,constantia,44.1833,28.65,279.65,63,66,5.22,RO,1683862876
126,la mira,18.035,-102.3266,299.93,76,98,2.52,MX,1683863037
127,baruun-urt,46.6806,113.2792,285.74,17,77,5.69,MN,1683863038
128,ust-nera,64.5667,143.2,278.2,63,100,1.4,RU,1683863039
129,cabedelo,-6.9811,-34.8339,298.52,79,43,3.93,BR,1683863039
130,la ronge,55.1001,-105.2842,287.29,44,40,1.54,CA,1683863040
131,st. john's,47.5649,-52.7093,276.64,66,40,8.75,CA,1683863041
132,enewetak,11.3474,162.3373,301.03,81,90,7.13,MH,1683863042
133,catemaco,18.4167,-95.1167,299.27,67,82,1.71,MX,1683863043
134,saint john,45.2727,-66.0677,280.15,75,0,1.03,CA,1683863044
135,petropavlovsk-kamchatsky,53.0452,158.6483,279.48,65,75,4.0,RU,1683862809
136,caleta de carquin,-11.0925,-77.6267,294.56,84,99,3.65,PE,1683863045
137,bridgewater,44.3835,-64.5155,279.97,93,55,2.57,CA,1683863046
138,sisimiut,66.9395,-53.6735,270.28,84,100,5.7,GL,1683862881
139,xanthi,41.1414,24.8836,285.82,74,100,2.3,GR,1683862919
140,santa marta de ortigueira,43.6833,-7.85,286.62,82,90,0.45,ES,1683863048
141,ilulissat,69.2167,-51.1,270.16,93,100,6.17,GL,1683863048
142,charlestown,-32.95,151.6667,296.54,62,0,0.45,AU,1683863049
143,vernon,50.2581,-119.2691,293.35,37,27,0.51,CA,1683863050
144,vadso,70.0744,29.7487,279.64,100,75,5.66,NO,1683863051
145,huarmey,-10.0681,-78.1522,295.14,87,100,3.96,PE,1683863051
146,avarua,-21.2078,-159.775,299.18,78,75,7.2,CK,1683863052
147,fale old settlement,-9.3852,-171.2468,301.93,76,25,5.98,TK,1683863053
148,wailua homesteads,22.0669,-159.378,298.59,73,40,6.17,US,1683863053
149,kolonia,50.9333,6.95,286.46,93,100,1.54,DE,1683862809
150,bu'aale,1.0833,42.5833,297.27,91,99,3.29,SO,1683863055
151,novokuznetsk,53.7557,87.1099,284.37,50,99,5.22,RU,1683862922
152,lianghu,29.9915,120.8985,294.24,61,97,2.59,CN,1683863056
153,sydney,-33.8679,151.2073,297.2,55,20,3.09,AU,1683862484
154,camana,-16.6228,-72.7111,292.47,83,42,2.32,PE,1683863057
155,dawson creek,55.7666,-120.2362,291.95,37,40,8.23,CA,1683863058
156,knyaze-volkonskoye,48.4642,135.4567,294.34,30,0,3.05,RU,1683863059
157,stockelsdorf,53.8905,10.6258,287.12,71,100,2.06,DE,1683863060
158,callao,-12.0667,-77.15,295.31,73,100,5.14,PE,1683863062
159,bikenibeu village,1.3673,173.1241,305.13,70,20,4.12,KI,1683863063
160,hasaki,35.7333,140.8333,293.83,55,54,4.58,JP,1683863064
161,utrik,11.2278,169.8474,300.65,79,86,7.48,MH,1683863065
162,peniche,39.3558,-9.3811,287.75,84,0,11.86,PT,1683862866
163,hadibu,12.65,54.0333,301.72,71,100,0.5,YE,1683863066
164,sainte-anne-des-monts,49.124,-66.4924,282.08,53,76,4.12,CA,1683863067
165,zorritos,-3.6805,-80.6782,300.31,82,40,2.41,PE,1683863067
166,nouadhibou,20.931,-17.0347,292.14,94,75,8.23,MR,1683863068
167,ust'-kalmanka,52.1207,83.305,286.36,57,100,2.92,RU,1683863069
168,onega,63.9061,38.1404,279.65,87,83,2.33,RU,1683863071
169,chernyshevsk,52.5243,117.0174,286.36,22,3,6.34,RU,1683863074
170,oranjemund,-28.55,16.4333,285.96,78,100,10.22,NA,1683862806
171,happy valley-goose bay,53.3168,-60.3315,275.32,51,20,2.57,CA,1683863076
172,san-pedro,4.7485,-6.6363,300.19,85,100,2.22,CI,1683863077
173,dudinka,69.4058,86.1778,259.61,92,78,6.63,RU,1683863078
174,art khwajah,37.0857,69.4796,300.19,32,77,3.99,AF,1683863078
175,mount pearl,47.5166,-52.7813,276.18,66,40,8.75,CA,1683863083
176,kodiak,57.79,-152.4072,279.88,81,100,7.72,US,1683863083
177,katima mulilo,-17.5,24.2667,285.87,61,7,1.91,NA,1683863084
178,bulungu,-4.55,18.6,295.48,77,63,0.76,CD,1683863085
179,puerto deseado,-47.7503,-65.8938,285.58,52,100,7.66,AR,1683863085
180,ryotsu-minato,38.0833,138.4333,287.79,48,56,3.34,JP,1683863086
181,orimattila,60.8049,25.7296,282.25,51,12,2.18,FI,1683863087
182,launceston,-41.45,147.1667,290.16,73,77,5.14,AU,1683863087
183,ola,59.5833,151.2833,281.01,78,60,3.3,RU,1683863088
184,fort st. john,56.2499,-120.8529,292.09,39,75,2.57,CA,1683863089
185,lompoc,34.6391,-120.4579,287.47,89,40,6.69,US,1683863089
186,los osos,35.3111,-120.8324,290.69,87,0,6.17,US,1683863090
187,mahina,-17.5065,-149.489,301.02,69,75,1.54,PF,1683863095
188,la gi,10.6667,107.7833,304.4,65,97,4.53,VN,1683863095
189,zaraza,9.3503,-65.3245,298.78,73,73,3.01,VE,1683863096
190,cooper's town,26.8667,-77.5167,298.31,72,44,7.46,BS,1683863097
191,flying fish cove,-10.4217,105.6791,301.97,83,100,7.2,CX,1683863097
192,shenjiamen,29.9576,122.298,291.71,58,96,2.36,CN,1683863098
193,hondomachi-hondo,32.45,130.2,294.16,58,86,3.55,JP,1683863099
194,awjilah,29.1081,21.2869,292.96,46,0,1.62,LY,1683863099
195,churachandpur,24.3333,93.6667,304.66,23,100,1.3,IN,1683863100
196,turkan,40.3639,50.215,288.25,72,40,8.23,AZ,1683863101
197,crescent city,41.756,-124.2018,285.23,85,100,3.6,US,1683863102
198,belyy yar,53.6039,91.3903,283.09,71,0,7.0,RU,1683863102
199,whitehorse,60.7161,-135.0538,286.58,35,75,6.17,CA,1683863103
200,beitbridge,-22.2167,30.0,290.83,58,0,2.76,ZW,1683863104
201,dalbandin,28.8947,64.4101,307.07,10,1,3.38,PK,1683863104
202,acarau,-2.8856,-40.12,298.59,83,21,2.31,BR,1683863105
203,uryupinsk,50.8047,42.0138,281.27,93,100,4.99,RU,1683863106
204,az zulfi,26.2995,44.8154,303.12,16,9,5.09,SA,1683863106
205,antofagasta,-23.65,-70.4,287.75,83,21,0.99,CL,1683863082
206,chambersburg,39.9376,-77.6611,292.29,76,5,0.89,US,1683863108
207,san julian,21.0167,-102.1667,293.45,21,2,5.11,MX,1683863109
208,santa cruz del sur,20.7147,-77.9956,298.6,82,36,4.97,CU,1683863109
209,zambezi,-13.5432,23.1047,285.29,58,0,2.49,ZM,1683863110
210,marsh harbour,26.5412,-77.0636,298.16,73,32,7.32,BS,1683863111
211,monrovia,6.3005,-10.7969,298.02,86,100,2.14,LR,1683863111
212,kiknur,57.3034,47.2011,284.55,71,4,2.15,RU,1683863112
213,ronda,36.7423,-5.1671,284.85,88,1,1.93,ES,1683863113
214,new norfolk,-42.7826,147.0587,289.87,43,56,0.45,AU,1683863113
215,cozumel,20.5083,-86.9458,301.45,91,58,4.02,MX,1683863114
216,volodarskiy,46.4013,48.5409,284.12,65,0,6.07,RU,1683863115
217,ocos,14.5094,-92.1933,302.5,71,22,4.49,GT,1683863115
218,dipayal,29.2608,80.94,305.69,19,0,1.61,NP,1683863116
219,caraballeda,10.6112,-66.8522,298.19,83,85,3.6,VE,1683863118
220,prince rupert,54.3161,-130.3201,287.2,51,75,9.77,CA,1683863119
221,benghazi,32.1167,20.0667,291.12,80,3,4.18,LY,1683863120
222,kindu,-2.95,25.95,295.53,91,100,0.85,CD,1683863121
223,novobod,39.0108,70.1508,292.14,45,95,1.45,TJ,1683863121
224,kokkola,63.8385,23.1307,281.44,75,0,3.09,FI,1683862968
225,puerto ayora,-0.7393,-90.3518,299.57,96,44,3.13,EC,1683863123
226,tolanaro,-25.0319,46.9987,296.19,94,40,6.17,MG,1683863123
227,yanam,16.7333,82.2167,306.5,52,100,0.77,IN,1683863109
228,villa rica,33.7321,-84.9191,294.93,82,96,1.95,US,1683863125
229,lodja,-3.4833,23.4333,294.94,79,91,0.89,CD,1683863125
230,afaahiti,-17.75,-149.2833,300.08,94,100,10.98,PF,1683863126
231,westport,41.1415,-73.3579,292.14,73,0,1.54,US,1683863127
232,andergrove,-21.0833,149.1833,298.51,75,10,7.55,AU,1683863128
233,remire-montjoly,4.9167,-52.2667,296.17,100,100,0.0,GF,1683863128
234,mayna,54.1135,47.6231,283.57,64,100,5.19,RU,1683863129
235,labuan bajo,-8.4964,119.8877,304.17,53,53,1.93,ID,1683863130
236,'ain el hadjar,34.7585,0.1453,284.78,79,46,1.96,DZ,1683863130
237,tynda,55.1667,124.7167,282.84,60,100,2.86,RU,1683863131
238,jaguaruna,-28.615,-49.0256,287.03,81,55,3.83,BR,1683863121
239,praia da vitoria,38.7333,-27.0667,290.24,100,75,3.06,PT,1683863132
240,sidney,-33.8679,151.2073,296.83,55,20,3.09,AU,1683862885
241,keflavik,64.0049,-22.5624,283.1,100,100,4.63,IS,1683863134
242,fort mcmurray,56.7268,-111.381,292.92,30,75,2.06,CA,1683863134
243,alesund,62.4723,6.1549,284.68,94,100,0.0,NO,1683862964
244,valdivia,-39.8142,-73.2459,287.2,96,100,0.67,CL,1683863107
245,luderitz,-26.6481,15.1594,287.89,76,100,12.38,NA,1683863138
246,pudozh,61.8099,36.5345,283.43,58,6,2.15,RU,1683863139
247,la'ie,21.6477,-157.9253,298.77,72,42,3.13,US,1683863140
248,cill airne,52.05,-9.5167,280.85,98,44,1.58,IE,1683863143
249,port alfred,-33.5906,26.891,288.81,98,100,8.35,ZA,1683863144
250,arraial do cabo,-22.9661,-42.0278,295.64,74,96,4.8,BR,1683863145
251,verkhnyaya khava,51.8404,39.9413,282.19,81,84,4.15,RU,1683863146
252,tura,25.5198,90.2201,306.99,34,71,0.57,IN,1683863146
253,saint-remy-les-chevreuse,48.7071,2.0769,283.89,87,0,2.57,FR,1683863147
254,nemuro,43.3236,145.575,280.1,76,15,5.0,JP,1683863148
255,hantsavichy,52.758,26.43,281.35,72,4,1.72,BY,1683863148
256,dhidhdhoo,6.8833,73.1,301.86,76,99,2.79,MV,1683863149
257,touros,-5.1989,-35.4608,298.95,80,90,3.82,BR,1683863150
258,sur,22.5667,59.5289,306.8,40,0,3.41,OM,1683863153
259,uturoa,-16.7333,-151.4333,298.3,87,100,4.91,PF,1683863154
260,mahdia,35.5047,11.0622,289.12,85,79,2.41,TN,1683863156
261,chillan,-36.6066,-72.1034,285.41,75,45,3.48,CL,1683863157
262,thompson,55.7435,-97.8558,284.24,62,20,3.6,CA,1683863158
263,codrington,-38.2667,141.9667,288.36,58,59,3.53,AU,1683863158
264,cidreira,-30.1811,-50.2056,290.09,71,89,4.18,BR,1683863159
265,mount gambier,-37.8333,140.7667,289.12,50,3,2.43,AU,1683863160
266,rawson,-43.3002,-65.1023,289.07,51,100,2.64,AR,1683863160
267,la passe,45.5549,-0.8967,284.81,87,87,1.88,FR,1683863161
268,feijo,-8.1642,-70.3536,296.45,89,94,1.07,BR,1683863162
269,vorgashor,67.5833,63.95,266.64,86,20,3.09,RU,1683863163
270,kapa'a,22.0752,-159.319,299.33,73,40,6.17,US,1683863163
271,pisco,-13.7,-76.2167,293.18,77,100,4.12,PE,1683863166
272,barbalha,-7.3111,-39.3042,297.04,94,0,0.0,BR,1683863167
273,kingston,17.997,-76.7936,300.68,84,20,5.14,JM,1683863168
274,chonchi,-42.6128,-73.8092,285.99,98,100,1.2,CL,1683863168
275,kirakira,-10.4544,161.9205,302.34,74,72,5.47,SB,1683863169
276,timimoun,29.2639,0.231,301.36,15,0,5.14,DZ,1683863170
277,lorengau,-2.0226,147.2712,301.99,77,100,2.24,PG,1683863171
278,neelankarai,12.9455,80.2575,305.18,70,75,3.6,IN,1683863172
279,monticello,45.3055,-93.7941,294.17,83,100,1.54,US,1683863172
280,laojunmiao,39.8333,97.7333,290.45,11,0,3.82,CN,1683863174
281,portland,45.5234,-122.6762,297.14,45,20,1.54,US,1683862992
282,susuman,62.7833,148.1667,278.86,67,99,2.36,RU,1683863176
283,rongelap,11.1635,166.8941,300.83,80,86,7.64,MH,1683863176
284,kenora,49.8167,-94.4337,292.69,45,40,1.54,CA,1683863177
285,sayat,38.7839,63.8803,297.08,24,0,5.89,TM,1683863178
286,betio village,1.358,172.9211,305.17,78,100,5.28,KI,1683863179
287,chaohu,31.6,117.8667,295.93,43,19,2.64,CN,1683863179
288,hit,33.6416,42.8251,301.62,19,0,4.04,IQ,1683863140
289,zaigrayevo,51.8336,108.2703,288.02,24,30,4.12,RU,1683863181
290,saint-philippe,-21.3585,55.7679,295.92,77,94,4.47,RE,1683863080
291,ascension,30.2169,-90.9001,299.26,96,100,0.0,US,1683863182
292,port elizabeth,-33.918,25.5701,288.31,88,0,7.72,ZA,1683863130
293,sukhodol,53.9006,51.2117,285.41,58,100,2.9,RU,1683863183
294,ceerigaabo,10.6162,47.368,292.77,56,100,1.34,SO,1683863184
295,izobil'nyy,45.3709,41.7084,282.73,74,4,1.94,RU,1683863186
296,san rafael,-34.6177,-68.3301,289.02,57,34,2.85,AR,1683862924
297,vila franca do campo,37.7167,-25.4333,289.38,89,100,0.76,PT,1683863187
298,nanao,37.05,136.9667,293.32,46,100,3.92,JP,1683863188
299,akureyri,65.6835,-18.0878,282.11,76,100,9.77,IS,1683863132
300,tshela,-4.9833,12.9333,296.33,99,100,0.59,CD,1683863189
301,grande prairie,55.1667,-118.8027,292.25,34,75,1.03,CA,1683863190
302,jayapura,-2.5333,140.7,306.81,81,100,3.44,ID,1683863191
303,namtsy,62.7161,129.6658,278.62,28,100,3.67,RU,1683863191
304,santo antonio do ica,-3.1022,-67.9397,295.07,99,92,0.29,BR,1683863192
305,areia branca,-4.9561,-37.1369,299.53,75,68,4.11,BR,1683863193
306,riachao das neves,-11.7461,-44.91,295.85,75,100,1.07,BR,1683863193
307,arkhangel'sk,64.5401,40.5433,279.59,82,100,1.22,RU,1683863117
308,margate,51.3813,1.3862,284.19,89,100,4.02,GB,1683863044
309,zhosaly,45.4878,64.0781,299.77,30,10,5.14,KZ,1683863196
310,bamboo flat,11.7,92.7167,302.89,75,98,10.68,IN,1683863197
311,sikasso,10.9167,-7.0,302.39,42,93,3.75,ML,1683863198
312,boca suno,-0.7167,-77.1333,294.64,99,67,0.54,EC,1683863199
313,panacan,9.2463,118.4082,303.58,66,100,2.87,PH,1683863199
314,el granada,37.5027,-122.4694,288.12,83,100,8.75,US,1683863200
315,waingapu,-9.6567,120.2641,301.79,61,88,6.79,ID,1683863201
316,la sarre,48.8002,-79.1996,283.98,98,81,2.7,CA,1683863201
317,nelson bay,-32.7167,152.15,295.18,73,0,3.13,AU,1683863202
318,williams lake,52.1415,-122.1445,292.91,27,20,1.54,CA,1683863203
319,minas de marcona,-15.2119,-75.1103,287.2,88,40,3.6,PE,1683863203
320,colonia,50.9333,6.95,286.46,93,100,1.54,DE,1683863204
321,klyuchi,52.2667,79.1667,287.65,41,96,3.55,RU,1683863205
322,crane,31.3974,-102.3501,297.36,12,1,1.6,US,1683863205
323,katsuura,35.1333,140.3,291.11,53,96,3.18,JP,1683863206
324,khorixas,-20.3667,14.9667,293.19,39,100,0.37,NA,1683863207
325,hat yai,7.0084,100.4767,307.25,62,20,3.09,TH,1683863208
326,enriquillo,17.9,-71.2333,297.96,84,8,3.89,DO,1683863208
327,konarka,19.9,86.1167,304.37,58,100,3.92,IN,1683863209
328,tazacorte,28.629,-17.9293,292.69,92,100,5.66,ES,1683863210
329,porkhov,57.765,29.5561,284.42,60,97,1.12,RU,1683863210
330,ixtapa,20.7,-105.2,295.8,62,6,1.32,MX,1683863211
331,calatayud,41.3535,-1.6432,281.79,82,35,1.67,ES,1683863134
332,florence,43.7667,11.25,286.24,98,75,0.51,IT,1683862970
333,saurimo,-9.6608,20.3916,287.19,57,4,1.96,AO,1683863214
334,laguna,38.421,-121.4238,293.31,60,0,4.12,US,1683863215
335,saint-joseph,-21.3667,55.6167,295.36,73,97,4.08,RE,1683863215
336,nova sintra,14.8667,-24.7167,292.71,83,7,7.36,CV,1683863216
337,bandundu,-3.3167,17.3667,297.17,84,73,0.44,CD,1683863217
338,port blair,11.6667,92.75,302.79,75,100,10.73,IN,1683863218
339,kijang,35.2442,129.2139,295.0,60,100,1.68,KR,1683863218
340,mana,5.6592,-53.7767,298.17,90,100,3.14,GF,1683863219
341,paramonga,-10.6667,-77.8333,294.74,85,99,3.37,PE,1683863220
342,olbia,40.9214,9.4856,286.18,76,0,3.6,IT,1683862949
343,pitea,65.3172,21.4794,283.2,75,42,2.67,SE,1683863221
344,trinidad,-14.8333,-64.9,296.07,80,70,1.58,BO,1683863222
345,lerwick,60.1545,-1.1494,281.15,89,0,3.47,GB,1683863222
346,podgorica,42.4411,19.2636,289.87,94,100,5.66,ME,1683862430
347,walvis bay,-22.9575,14.5053,287.68,94,100,5.66,NA,1683863224
348,kamina,-8.7386,24.9906,288.46,79,8,1.56,CD,1683863225
349,luganville,-15.5333,167.1667,301.21,67,77,7.68,VU,1683863225
350,pendleton,45.6721,-118.7886,292.93,57,0,2.57,US,1683863228
351,schleswig,54.5167,9.55,285.09,85,75,3.6,DE,1683863172
352,jianguang,28.1938,115.7836,296.71,59,30,1.75,CN,1683863229
353,mili,6.0815,171.735,300.69,83,81,9.2,MH,1683863230
354,revda,56.801,59.9303,282.26,40,66,3.74,RU,1683863232
355,guixi,28.2886,117.2133,295.09,68,87,2.43,CN,1683862946
356,susanville,40.4163,-120.653,289.06,49,0,1.54,US,1683863235
357,khash,28.2211,61.2158,301.69,13,17,2.68,IR,1683863235
358,rakops,-21.0167,24.3333,289.34,46,3,3.1,BW,1683863236
359,myeik,12.4333,98.6,305.21,60,100,4.24,MM,1683863237
360,karratha,-20.7377,116.8463,302.14,18,0,8.14,AU,1683863237
361,ifrane,33.3333,-5.25,283.39,58,68,1.17,MA,1683863240
362,san antonio de pale,-1.4014,5.6325,301.17,80,93,4.96,GQ,1683863241
363,hithadhoo,-0.6,73.0833,301.77,75,100,7.37,MV,1683863242
364,kone,-21.0595,164.8658,298.82,60,100,3.6,NC,1683863242
365,khandyga,62.6667,135.6,279.07,58,100,1.85,RU,1683863243
366,acapulco de juarez,16.8634,-99.8901,302.05,70,20,1.54,MX,1683863244
367,nahiyat ash shinafiyah,31.5874,44.6602,303.42,14,0,3.75,IQ,1683863245
368,holualoa,19.6228,-155.9522,298.06,80,40,3.09,US,1683863245
369,gao,16.6362,1.637,304.03,14,48,4.56,ML,1683863247
370,gowurdak,37.8124,66.0466,300.29,27,9,4.2,TM,1683863247
371,shingu,33.7333,135.9833,293.31,50,24,2.59,JP,1683863250
372,kismayo,-0.3582,42.5454,300.09,82,92,4.78,SO,1683863251
373,motueka,-41.1333,173.0167,287.65,63,2,1.97,NZ,1683863252
374,taltal,-25.4,-70.4833,289.67,83,22,1.22,CL,1683863252
375,ulladulla,-35.35,150.4667,294.69,52,15,3.49,AU,1683863253
376,yemetsk,63.4721,41.7941,281.69,76,98,2.47,RU,1683863254
377,maksatikha,57.797,35.8825,284.72,62,98,2.06,RU,1683863255
378,mokhsogollokh,61.4681,128.9203,277.89,36,100,3.31,RU,1683863255
379,jonquiere,48.4165,-71.2488,284.82,55,93,5.66,CA,1683863258
380,laela,-8.5667,32.05,287.28,94,63,0.8,TZ,1683863259
381,kalmunai,7.4167,81.8167,302.73,74,98,0.68,LK,1683863260
382,kristiansund,63.1115,7.732,282.51,93,100,0.0,NO,1683863260
383,port saint john's,-31.6229,29.5448,293.19,74,100,4.87,ZA,1683863261
384,yeniseysk,58.4497,92.1703,279.88,65,100,4.7,RU,1683863262
385,kudahuvadhoo,2.6708,72.8944,301.2,78,98,8.07,MV,1683863262
386,monteros,-27.1674,-65.4983,292.01,66,100,0.05,AR,1683863263
387,kamianske,48.5113,34.6021,282.18,70,2,2.5,UA,1683863020
388,gereshk,31.8209,64.5701,304.91,13,35,1.5,AF,1683863265
389,korla,41.7597,86.1469,296.67,11,76,6.37,CN,1683863265
390,kerikeri,-35.2268,173.9474,289.77,63,12,1.34,NZ,1683863266
391,wenchang,30.904,118.4887,296.75,48,44,3.02,CN,1683863267
392,tocache,-8.1842,-76.5125,293.36,99,49,0.3,PE,1683863267
393,rundu,-17.9333,19.7667,286.86,43,7,2.23,NA,1683863268
394,zouerate,22.7187,-12.4521,302.15,24,85,4.5,MR,1683863269
395,igarka,67.4667,86.5833,263.38,79,89,8.16,RU,1683863269
396,sortavala,61.7053,30.6918,283.2,59,12,2.82,RU,1683863270
397,xinyuan,37.3,99.0,276.38,40,71,2.39,CN,1683863271
398,kzyltu,53.6364,72.3414,285.1,45,18,4.34,KZ,1683863271
399,ceeldheer,3.8488,47.1806,300.07,83,56,7.32,SO,1683863272
400,iskateley,67.6803,53.1512,273.75,100,100,2.87,RU,1683863273
401,tomohon,1.3346,124.8392,300.67,76,80,1.81,ID,1683863274
402,salahonda,2.1019,-78.7217,300.53,79,16,1.67,CO,1683863275
403,saldanha,-33.0117,17.9442,284.18,70,28,13.25,ZA,1683863276
404,peruibe,-24.32,-46.9983,292.43,84,98,1.68,BR,1683863277
405,mount isa,-20.7333,139.5,301.02,24,0,5.66,AU,1683863278
406,mahibadhoo,3.7833,72.9667,300.86,81,100,7.33,MV,1683863278
407,nagqu,31.5,92.0,272.7,38,100,2.97,CN,1683863279
408,talnakh,69.4865,88.3972,259.38,80,51,4.79,RU,1683863280
409,ulety,51.3572,112.4849,286.66,16,2,3.14,RU,1683863281
410,morehead city,34.7229,-76.726,294.27,75,0,4.63,US,1683863281
411,juan griego,11.0817,-63.9655,299.22,94,75,7.2,VE,1683863282
412,nishinoomote,30.7333,131.0,294.46,77,75,3.6,JP,1683863283
413,saint-denis,48.9167,2.3333,284.42,84,0,2.57,FR,1683863093
414,lai chau,22.3997,103.4517,296.81,79,90,1.2,VN,1683863284
415,louis trichardt,-23.0439,29.9032,287.77,63,0,0.95,ZA,1683863049
416,tashla,51.7716,52.7427,283.82,96,100,2.44,RU,1683863286
417,kruisfontein,-34.0033,24.7314,286.97,73,100,7.23,ZA,1683863287
418,aguazul,5.1728,-72.5471,295.88,94,100,1.05,CO,1683863288
419,nyurba,63.2842,118.3319,281.1,40,12,3.69,RU,1683863288
420,nova xavantina,-14.6667,-52.35,294.2,72,83,1.13,BR,1683863289
421,zhangjiakou shi xuanhua qu,40.6103,115.0447,296.6,22,62,4.14,CN,1683863290
422,bodo,67.28,14.405,280.25,98,100,4.12,NO,1683863290
423,al ghayzah,16.2079,52.176,301.29,65,27,1.79,YE,1683863168
424,fort frances,48.5999,-93.4003,292.27,48,0,2.06,CA,1683863292
425,angra do heroismo,38.65,-27.2167,290.44,88,75,2.18,PT,1683863293
426,inhambane,-23.865,35.3833,293.21,89,0,2.69,MZ,1683863294
427,hondarribia,43.372,-1.7945,285.18,92,75,3.09,ES,1683863295
428,labytnangi,66.6572,66.4183,266.14,93,98,2.24,RU,1683863044
429,port augusta,-32.5,137.7667,293.54,41,7,3.93,AU,1683863296
430,gusinoozyorsk,51.2833,106.5,283.22,43,50,5.67,RU,1683863297
431,peace river,56.2501,-117.286,290.32,63,75,2.06,CA,1683863005
432,birao,10.2849,22.7882,300.31,61,97,1.52,CF,1683863298
433,taksimo,56.3444,114.8794,281.7,28,5,1.01,RU,1683863299
434,aras-asan,8.8908,126.3033,302.65,67,100,2.41,PH,1683863299
435,misawa,40.6836,141.3597,287.09,48,39,2.88,JP,1683863300
436,la huacana,18.9667,-101.8167,298.48,74,48,1.54,MX,1683863301
437,kerman,30.2832,57.0788,290.07,34,0,2.06,IR,1683863302
438,gebeit,21.0667,36.3167,301.78,12,0,1.83,SD,1683863302
439,laguna paiva,-31.3039,-60.6589,286.45,82,9,0.89,AR,1683863303
440,nampula,-15.1165,39.2666,294.12,94,75,2.24,MZ,1683863304
441,naze,28.3667,129.4833,296.66,61,15,4.54,JP,1683863304
442,aegina,37.7467,23.4275,288.26,70,7,4.43,GR,1683863308
443,christchurch,-43.5333,172.6333,288.33,68,69,6.17,NZ,1683863055
444,al jubayl,27.0112,49.6583,301.54,53,8,1.62,SA,1683863171
445,sonoita,31.85,-112.8333,294.92,26,4,2.2,MX,1683863310
446,quimili,-27.6333,-62.4167,287.98,70,1,3.51,AR,1683863311
447,tomarza,38.4472,35.7992,279.95,60,100,0.81,TR,1683863311
448,barcelos,41.5388,-8.6151,286.4,89,9,2.81,PT,1683863314
449,narvik,68.4384,17.4272,281.14,96,100,2.76,NO,1683863015
450,anina,45.0794,21.8569,282.68,70,100,8.08,RO,1683863316
451,port hedland,-20.3167,118.5667,304.18,9,5,8.75,AU,1683863318
452,san clemente del tuyu,-36.3569,-56.7235,286.57,65,33,2.81,AR,1683863319
453,santyoku,37.4406,129.1708,292.63,59,100,2.62,KR,1683863319
454,bou ismail,36.6426,2.6901,285.97,83,62,2.53,DZ,1683863321
455,novofedorivka,46.1713,32.3178,283.22,63,6,3.96,UA,1683863322
456,coyah,9.75,-13.4167,299.68,88,63,0.86,GN,1683863323
457,port macquarie,-31.4333,152.9167,295.31,62,1,3.72,AU,1683863324
458,slave lake,55.2834,-114.769,287.14,82,100,1.54,CA,1683863324
459,thabazimbi,-24.5917,27.4116,287.24,54,0,0.52,ZA,1683863325
460,sodankyla,67.4167,26.6,275.7,100,100,1.83,FI,1683863327
461,san luis de la loma,17.2706,-100.8939,300.55,78,91,0.97,MX,1683863327
462,palmer,42.1584,-72.3287,289.8,72,40,0.0,US,1683863328
463,inyati,-19.6756,28.8469,284.58,66,1,2.42,ZW,1683863329
464,lapeer,43.0514,-83.3188,291.42,77,0,0.0,US,1683863329
465,hiratacho,35.4333,132.8167,296.13,33,75,4.63,JP,1683863330
466,midvagur,62.0511,-7.1939,281.61,87,100,0.51,FO,1683863331
467,mutuali,-14.8706,37.0044,290.18,87,88,0.71,MZ,1683863332
468,kasama,-10.2129,31.1808,286.26,98,73,1.5,ZM,1683863332
469,kyren,51.6828,102.1408,290.35,38,45,2.49,RU,1683863333
470,essaouira,31.5125,-9.77,289.87,82,10,3.6,MA,1683863334
471,cam ranh,11.9214,109.1591,307.13,55,20,3.6,VN,1683863337
472,axim,4.8699,-2.2405,300.04,84,100,1.71,GH,1683863338
473,barclayville,4.6797,-8.2339,298.64,92,100,1.33,LR,1683863339
474,nsanje,-16.92,35.262,291.16,96,0,0.06,MW,1683863339
475,imbituba,-28.24,-48.6703,287.59,81,43,4.88,BR,1683863341
476,kaa-khem,51.6833,94.7333,289.74,33,95,0.99,RU,1683863341
477,kuta,-8.7233,115.1723,303.15,74,40,9.39,ID,1683863342
478,upata,8.0086,-62.3989,297.15,79,83,2.98,VE,1683863343
479,ilhabela,-23.7781,-45.3581,293.16,85,61,2.22,BR,1683863344
480,lazaro cardenas,17.9583,-102.2,300.56,74,100,3.17,MX,1683863344
481,kennebunk,43.384,-70.5448,289.2,78,0,1.54,US,1683863346
482,bratsk,56.1325,101.6142,281.42,53,100,4.77,RU,1683863075
483,smolyaninovo,43.2956,132.4675,288.85,40,100,4.06,RU,1683863348
484,miyaly,48.8844,53.7836,287.45,65,71,7.12,KZ,1683863348
485,nadym,65.5333,72.5167,265.93,75,46,2.77,RU,1683863349
486,harnai,30.1005,67.9374,306.18,9,0,1.31,PK,1683863350
487,samfya,-11.3649,29.5565,286.94,82,4,2.48,ZM,1683863152
488,porbandar,21.6422,69.6093,305.28,50,1,5.58,IN,1683863351
489,xiongzhou,25.1167,114.3,295.15,80,96,1.56,CN,1683863352
490,ust'-ilimsk,58.0006,102.6619,285.39,38,99,4.61,RU,1683863353
491,shimoda,34.6667,138.95,292.65,67,76,3.98,JP,1683863353
492,quellon,-43.1167,-73.6167,286.29,94,100,1.54,CL,1683863354
493,vangaindrano,-23.35,47.6,294.91,94,100,1.37,MG,1683863355
494,brookings,44.3114,-96.7984,293.15,87,0,4.12,US,1683863355
495,san pedro,14.35,121.0167,305.72,66,75,3.09,PH,1683863356
496,sriramnagar,17.2665,78.2554,307.63,29,42,3.44,IN,1683863357
497,urucara,-2.5364,-57.76,296.02,99,99,0.28,BR,1683863358
498,severnoye,56.3491,78.3619,279.63,44,7,4.83,RU,1683863358
499,el calafate,-50.3408,-72.2768,279.68,85,52,4.76,AR,1683863359
500,meadow lake,34.8014,-106.5436,292.66,28,5,2.05,US,1683863360
501,debre sina,9.85,39.7667,286.97,79,85,0.93,ET,1683863360
502,tarawa,1.419,172.984,305.2,70,20,4.12,KI,1683863361
503,tot'ma,59.9747,42.7642,286.29,59,100,2.59,RU,1683863362
504,russkiy,43.0147,131.8642,289.07,90,100,5.07,RU,1683863362
505,usinsk,65.9939,57.5281,273.48,100,100,6.46,RU,1683863363
506,saa,4.3667,11.45,293.98,100,98,0.62,CM,1683863364
507,cole harbour,44.6724,-63.4751,279.86,91,7,3.09,CA,1683863364
508,demba,-5.51,22.2667,292.63,79,37,1.07,CD,1683863365
509,fortuna,40.5982,-124.1573,285.18,89,100,3.6,US,1683863366
510,clifton,40.8584,-74.1638,295.84,53,0,4.63,US,1683863243
511,koh kong,11.6175,102.9806,304.14,64,81,2.42,KH,1683863367
512,quepos,9.4236,-84.1652,300.77,81,51,0.63,CR,1683863368
513,sungai penuh,-2.0833,101.3833,300.45,60,63,1.12,ID,1683863369
514,wuhai,39.6647,106.8122,294.8,17,0,5.84,CN,1683863369
515,bukama,-9.2,25.85,290.63,75,5,1.16,CD,1683863370
516,tommot,58.9564,126.2925,273.99,96,100,2.27,RU,1683863372
517,north ward,-19.2454,146.8075,301.1,54,100,8.75,AU,1683863373
518,carutapera,-1.195,-46.02,297.68,93,23,1.83,BR,1683863374
519,haiku-pauwela,20.9219,-156.3051,299.16,56,20,9.77,US,1683863374
520,ormara,25.2088,64.6357,302.55,71,35,7.11,PK,1683863375
521,lesnikovo,55.2822,65.3175,284.11,41,52,4.22,RU,1683863376
522,chibougamau,49.9168,-74.3659,285.94,58,75,1.03,CA,1683863377
523,selfoss,63.9331,-20.9971,282.06,97,100,9.24,IS,1683863377
524,cururupu,-1.8283,-44.8683,296.35,97,25,0.88,BR,1683863378
525,misratah,32.3754,15.0925,291.65,74,0,4.88,LY,1683863105
526,anna regina,7.2644,-58.5077,297.79,90,98,2.58,GY,1683863380
527,avsyunino,55.5652,39.1232,282.94,84,20,2.04,RU,1683863381
528,wynne,35.2245,-90.7868,293.93,97,100,3.85,US,1683863382
529,barntrup,51.9904,9.1164,284.6,96,99,1.57,DE,1683863382
530,la paz,-16.5,-68.15,280.69,70,75,2.06,BO,1683863088
531,aykhal,66.0,111.5,273.87,100,100,8.38,RU,1683863384
532,howrah,22.5892,88.3103,305.15,79,75,3.6,IN,1683863384
533,calchaqui,-29.8877,-60.287,284.09,75,10,3.13,AR,1683863200
534,birobidzhan,48.8,132.95,294.93,24,31,3.91,RU,1683863386
535,jambi city,-1.6,103.6167,305.49,60,34,1.25,ID,1683863386
536,barth,54.3635,12.7249,284.87,54,67,4.76,DE,1683863387
537,severo-yeniseyskiy,60.3725,93.0408,273.24,74,100,4.05,RU,1683863389
538,ndele,8.4109,20.6473,296.68,76,89,1.37,CF,1683863390
539,horodok,49.1637,26.5839,279.32,79,19,3.53,UA,1683863097
540,talghar,43.3044,77.2328,298.18,22,75,4.0,KZ,1683863391
541,sake,-1.5736,29.045,289.38,97,64,0.55,CD,1683863392
542,kolodeznyy,51.3333,39.1833,282.62,80,21,4.6,RU,1683863392
543,verkhov'ye,52.8119,37.2425,281.67,82,89,4.15,RU,1683863393
544,mugia,43.1041,-9.2179,286.02,80,70,6.69,ES,1683863395
545,carbonear,47.7332,-53.2148,277.27,72,39,2.49,CA,1683863395
546,geraldton,-28.7667,114.6,301.38,30,7,5.14,AU,1683863396
547,archangelos,36.2149,28.1149,290.54,79,100,8.27,GR,1683863398
548,altus,34.6381,-99.334,294.88,71,0,2.57,US,1683863398
549,kununurra,-15.7667,128.7333,301.14,20,34,7.2,AU,1683863399
550,amod,21.9833,72.9,309.9,21,0,3.66,IN,1683863400
551,puerto armuelles,8.2833,-82.8667,298.14,84,75,1.54,PA,1683863194
552,vilyuysk,63.7553,121.6247,280.46,36,1,2.36,RU,1683863401
553,zharkent,44.1628,80.0,300.02,14,100,3.13,KZ,1683863402
554,tofol,5.3248,163.0078,300.03,89,75,1.54,FM,1683863403
555,kayyerkan,69.3786,87.7439,259.43,84,92,8.1,RU,1683863405
556,kavieng,-2.5744,150.7967,301.36,75,86,1.54,PG,1683863406
557,al jawf,29.5,38.75,298.64,13,0,3.92,SA,1683863408
558,naciria,36.7463,3.8316,285.55,90,51,1.5,DZ,1683863409
